,Unnamed: 0,Headquarters,Revenue,Number of employees,Website,Name,longitude,latitude,social_media
0,1,"Redmond, Washington, U.S",US$198.3 billion (2022),"221,000 (2022)",microsoft.com,Microsoft,-122.1779501,47.6188947,"['https://twitter.com/Microsoft?ref_src=twsrc%5Egoogle%7Ctwcamp%5Eserp%7Ctwgr%5Eauthor', 'https://www.linkedin.com/company/microsoft', 'https://www.facebook.com/Microsoft/', 'https://www.instagram.com/microsoft/?hl=en']"
1,1,"415 Mission St, San Francisco, CA 94105, États-Unis",US$26.49 billion (2022),"73,542 (August 2022)",salesforce.com,Salesforce,-122.3969321220982,37.78977435,"['https://twitter.com/salesforce?ref_src=twsrc%5Egoogle%7Ctwcamp%5Eserp%7Ctwgr%5Eauthor', 'https://www.linkedin.com/company/salesforce', 'https://www.facebook.com/salesforce/', 'https://www.instagram.com/salesforce/?hl=en']"
2,1,"8th arrondissement, Paris, France",€37.59 billion (2021)[1],"124,600 (Dec 2021)[2]",https://www.bouygues-construction.com/en,Bouygues Construction,2.31765,48.8774799,"['https://twitter.com/bouygues_c', 'https://www.linkedin.com/company/bouygues-construction', 'https://www.facebook.com/Bouygues.Construction/', 'https://www.instagram.com/bouygues_construction/?hl=en']"
3,1,"Boulevard des Italiens, Paris, France",€46.2 billion (2021)[2],"190,000 (2022)[2]",group.bnpparibas,BNP Paribas,2.3394026,48.8718899,"['https://twitter.com/BNPParibas?ref_src=twsrc%5Egoogle%7Ctwcamp%5Eserp%7Ctwgr%5Eauthor', 'https://www.linkedin.com/company/bnp-paribas', 'https://www.facebook.com/BNPPARIBASOPEN/', 'https://www.instagram.com/bnpparibas/?hl=en']"
4,1,"8 Canada Square,London, England, UK",US$49.552 billion (2021)[4],"219,697 (2021)[4]",www.hsbc.com,HSBC,-0.0174404170308244,51.50543155,"['https://twitter.com/hsbc?lang=en', 'https://www.linkedin.com/company/hsbc', 'https://www.facebook.com/HSBC/', 'https://www.instagram.com/hsbc/?hl=en']"
5,1,"New York City, United States",US$150 million (2021)[1],"1,000+ (2022)[1]",dataiku.com,Dataiku,-74.0060152,40.7127281,"['https://twitter.com/dataiku?ref_src=twsrc%5Egoogle%7Ctwcamp%5Eserp%7Ctwgr%5Eauthor', 'https://www.linkedin.com/company/dataiku', 'https://www.facebook.com/dataiku/', 'https://www.instagram.com/dataiku/?hl=en']"
